latitude,longitude,location_id,subzone_id,address,postal_code,unit_number
1.34260353007147,103.716508444052,1,208,88 Corporation Road,649823,
1.29908744640975,103.881565630968,2,71,61 Kampong Arang Road,438181,
1.29902232591852,103.84676118949,3,92,20 Orchard Road,238830,
1.28618859279801,103.854157139967,4,10,1 Fullerton Road,049213,
1.28257452719679,103.858562162091,5,8,10 Bayfront Avenue,018956,
